[{"_id":"bw0000","name":"GESCHWISTER - SCHOLL - PLATZ 01","lat":48.15067,"lng":11.58054,"city":"München"},{"_id":"bw0040","name":"LUDWIGSTR. 27","lat":48.14947,"lng":11.58052,"city":"München"},{"_id":"bw0050","name":"SCHELLINGSTR. 04","lat":48.14954,"lng":11.5792,"city":"München"},{"_id":"bw0060","name":"SCHELLINGSTR. 10","lat":48.14961,"lng":11.57886,"city":"München"},{"_id":"bw0070","name":"SCHELLINGSTR. 12","lat":48.14954,"lng":11.57861,"city":"München"},{"_id":"bw0073","name":"AMALIENSTR. 52","lat":48.15005,"lng":11.57849,"city":"München"},{"_id":"bw0090","name":"AMALIENSTR. 54","lat":48.15038,"lng":11.57868,"city":"München"},{"_id":"bw0104","name":"SCHACKSTR. 04","lat":48.15196,"lng":11.58376,"city":"München"},{"_id":"bw0110","name":"AKADEMIESTR. 01","lat":48.15217,"lng":11.58137,"city":"München"},{"_id":"bw0120","name":"LUDWIGSTR. 33","lat":48.15209,"lng":11.58163,"city":"München"},{"_id":"bw0121","name":"LUDWIGSTR. 31","lat":48.15186,"lng":11.58152,"city":"München"},{"_id":"bw0122","name":"LUDWIGSTR. 29","lat":48.15163,"lng":11.58142,"city":"München"},{"_id":"bw0147","name":"AMALIENSTR. 73","lat":48.15073,"lng":11.5785,"city":"München"},{"_id":"bw0151","name":"AMALIENSTR. 83","lat":48.15133,"lng":11.57888,"city":"München"},{"_id":"bw0200","name":"SCHELLINGSTR. 03","lat":48.1493,"lng":11.57909,"city":"München"},{"_id":"bw0250","name":"SCHELLINGSTR. 09","lat":48.14955,"lng":11.5782,"city":"München"},{"_id":"bw0251","name":"SCHELLINGSTR. 05","lat":48.14922,"lng":11.57952,"city":"München"},{"_id":"bw0252","name":"SCHELLINGSTR. 07  ","lat":48.14951,"lng":11.57848,"city":"München"},{"_id":"bw0270","name":"SCHELLINGSTR. 33","lat":48.1503518,"lng":11.5751781,"city":"München"},{"_id":"bw0303","name":"KAULBACHSTR. 53","lat":48.15155,"lng":11.58367,"city":"München"},{"_id":"bw0306","name":"KAULBACHSTR. 45","lat":48.15064,"lng":11.58406,"city":"München"},{"_id":"bw0310","name":"KAULBACHSTR. 37","lat":48.14947,"lng":11.58355,"city":"München"},{"_id":"bw0334","name":"SCHÖNFELDSTR. 13A","lat":48.14581,"lng":11.58212,"city":"München"},{"_id":"bw0340","name":"LUDWIGSTR. 14","lat":48.14644,"lng":11.57968,"city":"München"},{"_id":"bw0407","name":"LUDWIGSTR. 28","lat":48.15165,"lng":11.58237,"city":"München"},{"_id":"bw0420","name":"PROFESSOR - HUBER - PLATZ 02","lat":48.15083,"lng":11.58205,"city":"München"},{"_id":"bw0440","name":"VETERINAERSTR. 01","lat":48.15048,"lng":11.58282,"city":"München"},{"_id":"bw0460","name":"VETERINAERSTR. 05 ","lat":48.15038,"lng":11.58315,"city":"München"},{"_id":"bw0554","name":"MARTIUSSTR. 04","lat":48.15701,"lng":11.58564,"city":"München"},{"_id":"bw0570","name":"GISELASTR. 10","lat":48.155,"lng":11.58578,"city":"München"},{"_id":"bw0575","name":"SEESTR. 13","lat":48.15879,"lng":11.59032,"city":"München"},{"_id":"bw0580","name":"LEOPOLDSTR. 30","lat":48.1556924,"lng":11.5842991,"city":"München"},{"_id":"bw0590","name":"LEOPOLDSTR. 44","lat":48.15697,"lng":11.58506,"city":"München"},{"_id":"bw0600","name":"LEOPOLDSTR. 03","lat":48.15378,"lng":11.58213,"city":"München"},{"_id":"bw0601","name":"LEOPOLDSTR. 13","lat":48.15575,"lng":11.58302,"city":"München"},{"_id":"bw0607","name":"LEOPOLDSTR. 13A","lat":48.15612,"lng":11.58214,"city":"München"},{"_id":"bw0608","name":"LEOPOLDSTR. 11A ","lat":48.15498,"lng":11.58272,"city":"München"},{"_id":"bw0610","name":"LEOPOLDSTR. 15","lat":48.15655,"lng":11.58342,"city":"München"},{"_id":"bw0620","name":"LEOPOLDSTR. 05","lat":48.15406,"lng":11.58225,"city":"München"},{"_id":"bw0630","name":"GEORGENSTR. 07","lat":48.15428,"lng":11.58104,"city":"München"},{"_id":"bw0631","name":"GEORGENSTR. 11","lat":48.15437,"lng":11.58047,"city":"München"},{"_id":"bw0650","name":"KONRADSTR. 06","lat":48.15586,"lng":11.57713,"city":"München"},{"_id":"bw0800","name":"VETERINAERSTR. 13","lat":48.15021,"lng":11.5849,"city":"München"},{"_id":"bw0801","name":"KOENIGINSTR. 08","lat":48.1508,"lng":11.58514,"city":"München"},{"_id":"bw0820","name":"KOENIGINSTR. 10B","lat":48.152088,"lng":11.585759,"city":"München"},{"_id":"bw0822","name":"KOENIGINSTR. 12","lat":48.15212,"lng":11.58604,"city":"München"},{"_id":"bw0824","name":"KOENIGINSTR. 14","lat":48.15216,"lng":11.58655,"city":"München"},{"_id":"bw0826","name":"KOENIGINSTR. 16","lat":48.15244,"lng":11.58672,"city":"München"},{"_id":"bw0828","name":"KOENIGINSTR. 18","lat":48.15273,"lng":11.58684,"city":"München"},{"_id":"bw1003","name":"THERESIENSTR. 37/39/41","lat":48.14799,"lng":11.5735,"city":"München"},{"_id":"bw1020","name":"AMALIENSTR. 17","lat":48.14706,"lng":11.5761,"city":"München"},{"_id":"bw1110","name":"RICHARD - WAGNER - STR. 10","lat":48.14739,"lng":11.56346,"city":"München"},{"_id":"bw1120","name":"LUISENSTR. 37","lat":48.14734,"lng":11.5648,"city":"München"},{"_id":"bw1130","name":"MEISERSTR. 10","lat":48.14456,"lng":11.56661,"city":"München"},{"_id":"bw1500","name":"PETTENKOFERSTR. 12","lat":48.13451,"lng":11.55988,"city":"München"},{"_id":"bw1501","name":"SCHILLERSTR. 46","lat":48.13446,"lng":11.56061,"city":"München"},{"_id":"bw1502","name":"GOETHESTR. 29","lat":48.13544,"lng":11.55887,"city":"München"},{"_id":"bw1503","name":"GOETHESTR. 33","lat":48.13487,"lng":11.5588,"city":"München"},{"_id":"bw1504","name":"SCHILLERSTR. 42","lat":48.13507,"lng":11.56068,"city":"München"},{"_id":"bw1505","name":"SCHILLERSTR. 44","lat":48.13519,"lng":11.56008,"city":"München"},{"_id":"bw1507","name":"PETTENKOFERSTR. 14","lat":48.13442,"lng":11.55933,"city":"München"},{"_id":"bw1509","name":"GOETHESTR. 31","lat":48.13521,"lng":11.55911,"city":"München"},{"_id":"bw1521","name":"PETTENKOFERSTR. 09A","lat":48.13394,"lng":11.56215,"city":"München"},{"_id":"bw1531","name":"PETTENKOFERSTR. 11","lat":48.134056,"lng":11.559951,"city":"München"},{"_id":"bw1540","name":"LESSINGSTR. 02","lat":48.13352,"lng":11.55788,"city":"München"},{"_id":"bw1541","name":"BEETHOVENPLATZ 01","lat":48.13345,"lng":11.55812,"city":"München"},{"_id":"bw1543","name":"BAVARIARING 19","lat":48.13415,"lng":11.55363,"city":"München"},{"_id":"bw1640","name":"LINDWURMSTR. 23","lat":48.13141,"lng":11.56293,"city":"München"},{"_id":"bw1715","name":"THALKIRCHNERSTR. 36 / FRAUENLOBSTR. 7A","lat":48.129971,"lng":11.564907,"city":"München"},{"_id":"bw2102","name":"MARCHIONINISTR. 27","lat":48.11253,"lng":11.46939,"city":"München"},{"_id":"bw2920","name":"FEODOR - LYNEN - STR. 25","lat":48.11277,"lng":11.46483,"city":"München"},{"_id":"bw2921","name":"FEODOR - LYNEN - STR. 23","lat":48.11306,"lng":11.46608,"city":"München"},{"_id":"bw2955","name":"BUTENANDTSTR. 1-13","lat":48.11363,"lng":11.46503,"city":"München"},{"_id":"bw2970","name":"GROSSHADERNERSTR. 02","lat":48.10915,"lng":11.45844,"city":"Planegg/Martinsried"},{"_id":"bw2974","name":"GROSSHADERNERSTR. 04","lat":48.10926,"lng":11.45949,"city":"Planegg/Martinsried"},{"_id":"bw2980","name":"GROSSHADERNERSTR. 06","lat":48.10992,"lng":11.45998,"city":"Planegg/Martinsried"},{"_id":"bw3200","name":"GROSSHADERNERSTR. 09","lat":48.1110066,"lng":11.459759,"city":"Planegg/Martinsried"},{"_id":"bw4070","name":"SONNENSTR. 16","lat":48.24348,"lng":11.55004,"city":"Oberschleißheim"},{"_id":"bw4925","name":"SCHÖNLEUTNERSTR. 08","lat":48.24894,"lng":11.55291,"city":"Oberschleißheim"},{"_id":"bw5950","name":"ZENTNERSTR. 31","lat":48.15824,"lng":11.56423,"city":"München"},{"_id":"bw6000","name":"WINZERERSTR. 45","lat":48.16315,"lng":11.56226,"city":"München"},{"_id":"bw6500","name":"EDMUND - RUMPLER - STR. 9-13","lat":48.19447,"lng":11.61111,"city":"München"},{"_id":"bw7000","name":"SCHEINERSTR. 1","lat":48.14592,"lng":11.60763,"city":"München"},{"_id":"bw7045","name":"LAPLACSTR. 16","lat":48.1463,"lng":11.60638,"city":"München"},{"_id":"bw7055","name":"MARIA - THERESIA - STR. 21","lat":48.1430287,"lng":11.5986936,"city":"München"},{"_id":"bw7070","name":"OETTINGENSTR. 67","lat":48.15043,"lng":11.59508,"city":"München"},{"_id":"bw9925","name":"FRAUNHOFERSTR. 12","lat":48.1104,"lng":11.44858,"city":"Planegg/Martinsried"}]
